Nome,Ano,Latitude,Longitude,Capacidade (hmÂ³),Volume (hm3),Volume Util (hm3)
Rivaldo de carvalho,2018,-39.9331061101,-6.2722289939600016,1952,346.23,67.58
Castanhao,2018,-38.4502293061,-5.48909482144,670000,587.07,39332.16
Patos,2018,-40.036497,-3.761444000000001,755,6550.22,494.54
Sao jose ii,2018,-39.4776763945,-5.8374046896700005,2914,26.63,7.78
Carnaubal,2018,-40.668200617,-5.280081325019999,8769,596.53,523.08
Nova floresta,2018,-38.907803,-5.9492629999999975,519,10.27,0.54
Manoel balbino,2018,-39.329299645700004,-7.107291457310001,3718,510.13,189.67
Souza,2018,-39.2825672821,-4.39272804136,3084,19.62,6.06
Trapia iii,2018,-40.71186,-3.753362,551,5737.85,316.15
Salao,2018,-39.3111742,-4.4069701,604,405.85,24.5
Madeiro,2018,-38.553137,-6.189098,281,244.07,6.86
Poco do barro,2018,-38.4595984652,-5.382572887669999,5200,826.25,429.57
Barragem do batalhao,2018,-40.65618,-5.19441,153,6265.3,95.86
Fogareiro,2018,-39.4913777371,-5.1669024196599995,11882,295.19,350.73
Riacho do sangue,2018,-38.9506399185,-5.693736833230001,6142,84.51,51.8
Colina,2018,-40.712804,-5.840381,325,9619.69,312.64
Carmina,2018,-40.2019816973,-4.66645336177,1363,233.03,31.76
Quixeramobim,2018,-39.3127774588,-5.19828377485,5400,717.37,387.38
Pacajus,2018,-38.3838534079,-4.22225681679,24000,3707.78,8898.6
Serafim dias,2018,-39.6472365319,-5.728479651209999,4300,0.0,0.0
Umari,2018,-39.551388,-4.809116,3504,5273.57,1847.87
Castro,2018,-38.932369564,-4.56489990367,6390,67.17,42.88
Ema,2018,-38.3449743134,-5.776328844959999,1039,460.54,47.84
Premuoca,2018,-38.9565822652,-6.40214304255,520,2963.17,154.08
Gomes,2018,-38.73024,-7.481016,239,7787.35,186.12
Parambu,2018,-40.711288,-6.202115,853,56.9,4.85
Tijuquinha,2018,-38.894027,-4.317856,97,3228.25,31.31
Jenipapeiro,2018,-39.2474835705,-5.8131511541400025,1700,69.72,11.86
Germinal,2018,0.0,0.0,211,9801.63,206.52
Pedras brancas,2018,-38.8777544386,-5.14985135743,43404,1191.74,5172.58
Canoas,2018,-39.94061022,-6.94638721095,6925,882.95,611.45
Gangorra,2018,-40.8614034371,-3.1683172022099995,6250,6400.81,4000.49
Rosario,2018,0.0,0.0,4720,5916.68,2792.66
Penedo,2018,-38.744555,-3.970682,241,1194.54,28.79
Catucinzenta,2018,-38.4369544335,-4.0218331131400005,2713,956.71,259.57
Pau preto,2018,-40.084615,-7.081014,181,5429.73,98.28
Trapia ii,2018,-39.7366728894,-5.5025788899900006,1819,714.32,129.96
Poco da pedra,2018,-40.3559822646,-6.98372899185,5200,229.35,119.25
Araras,2018,-40.448598424400004,-4.20951501641,89100,2072.73,18468.19
Lima campos,2018,-39.059782,-6.417186,6638,771.23,511.97
Forquilha,2018,-40.2535632298,-3.79604357192,5013,2219.52,1112.65
Bonito,2018,-40.684951,-4.3098849999999995,600,2293.28,137.6
Gaviao,2018,-38.5553424021,-3.9059618445,3330,8319.7,2770.55
Sitios novos,2018,-38.9597828672,-3.77127334573,12600,512.24,645.41
Frios,2018,-39.295427951,-3.69046238001,3302,1394.44,460.47
Ubaldinho,2018,-39.2375639263,-6.58385878059,3180,2789.93,887.2
Do coronel,2018,-39.93275197,-6.733659208,177,4515.14,79.92
Cipoada,2018,-38.645778484699996,-5.261854813919999,8609,567.94,488.92
Batente,2018,-38.48875,-4.651008,3351,6413.93,2149.33
Acarape do meio,2018,-38.7993848299,-4.19354599542,2959,4666.53,1380.83
Carao,2018,-40.361733153,-4.81667052184,2623,0.0,0.0
Tigre,2018,-39.15382,-5.889177,351,288.93,10.15
Pirabibu,2018,-39.3657924914,-4.980754081080001,7400,491.47,363.66
Fae,2018,-39.2180849523,-6.161337629219999,1900,0.0,0.0
Cupim,2018,-40.204276,-5.470685,455,1981.49,90.16
Favelas,2018,-40.1230031725,-5.98302184084,3010,0.0,0.0
Sucesso,2018,-40.5240408341,-4.9552218928,1000,3619.47,361.95
Quandu,2018,-39.629489,-3.5737370000000004,400,6028.96,241.16
Santo antonio de russas,2018,0.0,0.0,2400,3315.01,795.59
Arneiroz ii,2018,-40.220220464,-6.27146638594,19706,939.68,1851.75
Malcozinhado,2018,-38.2890791497,-4.10582877875,3784,649.83,245.89
Amanary,2018,-38.8837233213,-4.01262168678,1101,3343.44,368.11
Prazeres,2018,-38.6829425533,-7.109019720510001,3250,3383.88,1099.76
Santo antonio,2018,-38.370149,-5.898912,83,284.82,2.37
Taquara,2018,-40.611118,-3.896112000000002,32078,3063.76,9828.0
Martinopole,2018,-40.6162092689,-3.2370326144200003,2320,4479.73,1039.3
Realejo,2018,-40.8050668199,-5.261104572130002,3155,84.37,26.62
Jatoba,2018,-39.10435886,-5.542865475,107,2374.57,25.41
Riacho da serra,2018,-38.325225,-5.562632,2347,429.79,100.87
Mundau,2018,-39.516132,-3.6336209999999998,2130,4858.55,1034.87
General sampaio,2018,-39.4537367839,-4.06243387754,32220,1970.19,6347.87
Valerio,2018,-39.727292999999996,-6.967953,202,7883.11,159.24
Sao jose iii,2018,-40.77043,-4.897313,796,1363.51,108.54
Jerimum,2018,-39.6896801289,-3.8375328506099997,2050,1256.13,257.5
Trici,2018,-40.413943243,-5.91533033329,1650,4507.52,743.74
Edson queiroz,2018,-40.066569863699996,-4.21537241249,25400,3198.71,8124.81
Cachoeira,2018,-39.102801,-7.020179,3433,1860.27,638.63
Tucunduba,2018,-40.4458464533,-3.1795909254400003,4143,9159.99,3794.97
Trussu,2018,-39.433659842,-6.3082942087900005,30100,622.66,1874.36
Bengue,2018,-40.1392436122,-6.59658743945,1956,615.14,120.32
Santo antonio de aracatiacu,2018,0.0,0.0,2434,3118.34,759.0
Sao domingos ii,2018,-39.28301,-7.029354,225,3712.11,83.52
Patu,2018,-39.4023005082,-5.581869982080001,7183,978.36,702.77
Figueiredo,2018,0.0,0.0,50969,660.42,3366.09
Flor do campo,2018,-40.6717961812,-5.57067277258,10500,160.2,168.21
Farias de sousa,2018,-40.582480572399994,-4.76698183204,1223,540.58,66.12
Desterro,2018,-39.115126,-4.058951,501,1391.6,69.72
Thomas osterne,2018,-39.4869088371,-7.0907780781800005,2878,1255.87,361.45
Pacoti,2018,-38.5333114066,-4.03602241472,38000,2015.82,7660.35
Aracoiaba,2018,-38.695724978200005,-4.40220028355,17070,2726.22,4653.65
Sao domingos,2018,-39.283268,-4.220286,320,3233.88,103.48
Caldeiroes,2018,0.0,0.0,113,7147.91,80.77
Arrebita,2018,-40.2707202921,-3.85306388499,1960,2524.92,494.89
Gameleira,2018,-39.49250558378087,-3.371389673233692,5264,8771.25,4617.2
Poco verde,2018,-39.6295223261,-3.438721262790001,1365,6923.98,945.12
Curral velho,2018,-38.383801,-5.04557,1217,6647.4,808.98
Olho d'agua,2018,0.0,0.0,2100,2866.12,601.88
Cedro,2018,-39.0631731394,-4.9777287252199995,12600,143.75,181.07
Caxitore,2018,-39.3553731239,-3.74191444021,20200,1367.21,2761.83
Tatajuba,2018,-39.08259,-6.4159120000000005,272,4538.88,123.46
Quincoe,2018,-39.454306,-6.084822,433,82.69,3.58
Ayres de souza,2018,-40.4978967562,-3.77962049329,9680,5461.57,5286.82
Sao mateus,2018,-39.315869202399995,-4.37069635174,1033,4448.56,459.54
Macacos,2018,-38.709306,-4.799747,1032,1659.21,171.24
Escuridao,2018,0.0,0.0,272,1403.59,38.18
Monsenhor tabosa,2018,0.0,0.0,1210,6.61,0.79
Tejucuoca,2018,-39.505976259099995,-3.97597115391,2811,1680.99,472.52
Jaburu i,2018,-41.1133035668,-3.8650876702900003,13676,3242.35,4434.25
Muquem,2018,-39.482342939,-6.6105731406,4764,1502.65,715.85
Adauto bezerra,2018,-38.447193,-6.037778,525,79.01,4.16
Capitao mor,2018,-39.99916198,-5.626210127999999,600,383.99,23.04
Pentecoste,2018,-39.261648178099996,-3.80330004105,36000,598.74,2155.42
Facundo,2018,0.0,0.0,175,2691.14,47.1
Diamante,2018,-40.8636571293,-3.5992174022099994,1320,4827.62,637.25
Itauna,2018,-41.1672940639,-3.15241157107,7750,8425.35,6529.67
Forquilha ii,2018,-40.3993464,-5.9427898,340,1587.89,53.99
Potiretama,2018,-38.1681776,-5.7228775,633,31.91,2.02
Varzea do boi,2018,-40.2525492337,-5.90952523694,5191,593.05,307.91
Cauhipe,2018,-38.8683396159,-3.73934463276,1200,6065.05,727.77
Sobral,2018,-40.365556,-3.65705,468,5670.77,265.39
Itapebussu,2018,-38.903176,-4.059148,630,8201.33,516.68
Acarau mirim,2018,0.0,0.0,5200,6454.91,3356.49
Jaburu ii,2018,-40.4790214295,-5.4169297720800005,11600,1120.82,1300.12
Riachao,2018,-38.5231717263,-4.00099902774,4695,3238.87,1520.65
Itapaje,2018,0.0,0.0,424,8939.38,379.03
Angicos,2018,-40.8204151777,-3.63564653661,5605,8598.83,4819.64
Sao vicente,2018,-40.263431,-3.397075,984,9024.34,888.0
Joaquim tavora,2018,-38.8304650715,-5.9490545711800005,2677,554.39,148.41
Junco,2018,-39.215687,-6.892186,203,1639.91,33.29
Santa maria,2018,-38.276387,-5.9656480000000025,587,1574.33,92.41
Gerardo atimbone,2018,-39.98873,-3.83483,400,1614.19,64.57
Missi,2018,-39.858824,-3.4716980000000004,6530,6536.83,4268.55
Jenipapeiro ii,2018,-38.755099,-6.672764,4345,867.26,376.84
Banabuiu,2018,-38.9223710722,-5.32859467909,160100,436.89,6994.9
Sao pedro timbauba,2018,0.0,0.0,1925,6878.28,1324.08
Vieirao,2018,-39.7183924085,-5.15679628805,2096,29.71,6.23
Pompeu sobrinho,2018,-39.1409573634,-4.83834625589,14300,886.96,1268.37
Oros,2018,-38.9250093577,-6.2381264298,194000,780.68,15144.8
Atalho,2018,-38.8936496392,-7.641678529360001,10825,1136.65,1230.45
Santa maria de aracatiacu,2018,0.0,0.0,820,366.49,30.06
Quixabinha,2018,-38.746745161199996,-7.501917402889999,3178,936.68,297.66
Barra velha,2018,-40.173444,-5.293534999999999,9950,401.71,399.73
Varzea da volta,2018,-40.6146865971,-3.5021432096800007,1250,6747.49,843.44
Broco,2018,-40.324,-6.01,1750,137.0,24.0
Maranguapinho,2018,0.0,0.0,935,8804.91,823.26
Pesqueiro,2018,-38.961082,-4.444447,903,1320.91,119.28
Canafistula,2018,-38.3179973854,-5.86834198717,1311,1366.59,179.16
